{"businesses": [{"id": "xq93sw7z2W4GWkQXpL962A", "alias": "the-holy-donut-portland", "name": "The Holy Donut", "image_url": "https://s3-media4.fl.yelpcdn.com/bphoto/k6kuVWT_D1hDemAdZFAXpw/o.jpg", "is_closed": false, "url": "https://www.yelp.com/biz/the-holy-donut-portland?adjust_creative=c32R4bzAw8FryOFaJdPMNQ&utm_campaign=yelp_api_v3&utm_medium=api_v3_business_search&utm_source=c32R4bzAw8FryOFaJdPMNQ", "review_count": 756, "categories": [{"alias": "donuts", "title": "Donuts"}], "rating": 4.5, "coordinates": {"latitude": 43.65594996193883, "longitude": -70.2748537740094}, "transactions": ["pickup", "delivery"], "price": "$$", "location": {"address1": "194 Park Ave", "address2": "", "address3": "", "city": "Portland", "zip_code": "04102", "country": "US", "state": "ME", "display_address": ["194 Park Ave", "Portland, ME 04102"]}, "phone": "+12078747774", "display_phone": "(207) 874-7774", "distance": 1208.458957028689}, {"id": "QAE2DeILGOF-ND0e5yejug", "alias": "hifi-donuts-portland-3", "name": "HiFi Donuts", "image_url": "https://s3-media2.fl.yelpcdn.com/bphoto/thLAFgEWQ8Mn74JqvanyIg/o.jpg", "is_closed": false, "url": "https://www.yelp.com/biz/hifi-donuts-portland-3?adjust_creative=c32R4bzAw8FryOFaJdPMNQ&utm_campaign=yelp_api_v3&utm_medium=api_v3_business_search&utm_source=c32R4bzAw8FryOFaJdPMNQ", "review_count": 208, "categories": [{"alias": "donuts", "title": "Donuts"}, {"alias": "coffee", "title": "Coffee & Tea"}, {"alias": "breakfast_brunch", "title": "Breakfast & Brunch"}], "rating": 4.5, "coordinates": {"latitude": 43.65712, "longitude": -70.25805}, "transactions": ["delivery"], "price": "$", "location": {"address1": "30 City Ctr", "address2": null, "address3": null, "city": "Portland", "zip_code": "04101", "country": "US", "state": "ME", "display_address": ["30 City Ctr", "Portland, ME 04101"]}, "phone": "+12077475314", "display_phone": "(207) 747-5314", "distance": 1554.3388838718201}, {"id": "xRAja1IVdAW5eocnnzDX2g", "alias": "the-holy-donut-portland-4", "name": "The Holy Donut", "image_url": "https://s3-media2.fl.yelpcdn.com/bphoto/zdyKAIhIRwu56Jh16m48Iw/o.jpg", "is_closed": false, "url": "https://www.yelp.com/biz/the-holy-donut-portland-4?adjust_creative=c32R4bzAw8FryOFaJdPMNQ&utm_campaign=yelp_api_v3&utm_medium=api_v3_business_search&utm_source=c32R4bzAw8FryOFaJdPMNQ", "review_count": 113, "categories": [{"alias": "donuts", "title": "Donuts"}, {"alias": "coffee", "title": "Coffee & Tea"}], "rating": 4.0, "coordinates": {"latitude": 43.65597516654796, "longitude": -70.25290855849238}, "transactions": ["delivery"], "price": "$$", "location": {"address1": "177 Commercial St", "address2": null, "address3": "", "city": "Portland", "zip_code": "04101", "country": "US", "state": "ME", "display_address": ["177 Commercial St", "Portland, ME 04101"]}, "phone": "+12073315655", "display_phone": "(207) 331-5655", "distance": 1938.077197924039}, {"id": "4k3xgVEhMbG27KnU_iCHug", "alias": "eighty-8-donuts-cafe-portland", "name": "Eighty 8 Donuts Cafe", "image_url": "https://s3-media2.fl.yelpcdn.com/bphoto/KFTOY9bu_DtorBsXcZZQ7w/o.jpg", "is_closed": false, "url": "https://www.yelp.com/biz/eighty-8-donuts-cafe-portland?adjust_creative=c32R4bzAw8FryOFaJdPMNQ&utm_campaign=yelp_api_v3&utm_medium=api_v3_business_search&utm_source=c32R4bzAw8FryOFaJdPMNQ", "review_count": 12, "categories": [{"alias": "coffee", "title": "Coffee & Tea"}, {"alias": "donuts", "title": "Donuts"}, {"alias": "cafes", "title": "Cafes"}], "rating": 5.0, "coordinates": {"latitude": 43.65795, "longitude": -70.25766}, "transactions": [], "location": {"address1": "225 Federal St", "address2": "", "address3": null, "city": "Portland", "zip_code": "04101", "country": "US", "state": "ME", "display_address": ["225 Federal St", "Portland, ME 04101"]}, "phone": "", "display_phone": "", "distance": 1554.071722689787}, {"id": "d7fm35MYCtx1FMfqoHRb6g", "alias": "eighty-8-donuts-portland", "name": "Eighty 8 Donuts", "image_url": "https://s3-media2.fl.yelpcdn.com/bphoto/bwuVPNG-rqixnGXUC-ZqSA/o.jpg", "is_closed": false, "url": "https://www.yelp.com/biz/eighty-8-donuts-portland?adjust_creative=c32R4bzAw8FryOFaJdPMNQ&utm_campaign=yelp_api_v3&utm_medium=api_v3_business_search&utm_source=c32R4bzAw8FryOFaJdPMNQ", "review_count": 23, "categories": [{"alias": "foodtrucks", "title": "Food Trucks"}, {"alias": "donuts", "title": "Donuts"}], "rating": 4.5, "coordinates": {"latitude": 43.6591491699219, "longitude": -70.2566833496094}, "transactions": [], "location": {"address1": "", "address2": "", "address3": null, "city": "Portland", "zip_code": "04019", "country": "US", "state": "ME", "display_address": ["Portland, ME 04019"]}, "phone": "+12076533071", "display_phone": "(207) 653-3071", "distance": 1485.0534635907209}, {"id": "vAwKdR7bZSEk9XSPWa5EAA", "alias": "tonys-donut-shop-portland", "name": "Tony's Donut Shop", "image_url": "https://s3-media4.fl.yelpcdn.com/bphoto/6yEq8caTE9gOOSf0w-A9kA/o.jpg", "is_closed": false, "url": "https://www.yelp.com/biz/tonys-donut-shop-portland?adjust_creative=c32R4bzAw8FryOFaJdPMNQ&utm_campaign=yelp_api_v3&utm_medium=api_v3_business_search&utm_source=c32R4bzAw8FryOFaJdPMNQ", "review_count": 120, "categories": [{"alias": "donuts", "title": "Donuts"}], "rating": 4.0, "coordinates": {"latitude": 43.6575, "longitude": -70.28952}, "transactions": ["delivery"], "price": "$", "location": {"address1": "9 Bolton St", "address2": "", "address3": "", "city": "Portland", "zip_code": "04102", "country": "US", "state": "ME", "display_address": ["9 Bolton St", "Portland, ME 04102"]}, "phone": "+12077722727", "display_phone": "(207) 772-2727", "distance": 1723.0849250138397}, {"id": "v0U8PNRmpGKLs4ctrlYMaQ", "alias": "standard-baking-portland-2", "name": "Standard Baking", "image_url": "https://s3-media4.fl.yelpcdn.com/bphoto/MY86DcQ591CRttWLV3B8Tw/o.jpg", "is_closed": false, "url": "https://www.yelp.com/biz/standard-baking-portland-2?adjust_creative=c32R4bzAw8FryOFaJdPMNQ&utm_campaign=yelp_api_v3&utm_medium=api_v3_business_search&utm_source=c32R4bzAw8FryOFaJdPMNQ", "review_count": 621, "categories": [{"alias": "bakeries", "title": "Bakeries"}, {"alias": "desserts", "title": "Desserts"}, {"alias": "cupcakes", "title": "Cupcakes"}], "rating": 4.5, "coordinates": {"latitude": 43.6580172, "longitude": -70.2508976}, "transactions": ["delivery"], "price": "$$", "location": {"address1": "75 Commercial St", "address2": "", "address3": "", "city": "Portland", "zip_code": "04101", "country": "US", "state": "ME", "display_address": ["75 Commercial St", "Portland, ME 04101"]}, "phone": "+12077732112", "display_phone": "(207) 773-2112", "distance": 1947.5315200442772}, {"id": "HdQr2QayY8pZAHM8fiG0mw", "alias": "duckfat-portland", "name": "Duckfat", "image_url": "https://s3-media2.fl.yelpcdn.com/bphoto/y_0zQrkEvj8nAg8x46Swcg/o.jpg", "is_closed": false, "url": "https://www.yelp.com/biz/duckfat-portland?adjust_creative=c32R4bzAw8FryOFaJdPMNQ&utm_campaign=yelp_api_v3&utm_medium=api_v3_business_search&utm_source=c32R4bzAw8FryOFaJdPMNQ", "review_count": 2825, "categories": [{"alias": "newamerican", "title": "American (New)"}], "rating": 4.5, "coordinates": {"latitude": 43.66025597804476, "longitude": -70.25035486716648}, "transactions": ["delivery"], "price": "$$", "location": {"address1": "43 Middle St", "address2": null, "address3": "", "city": "Portland", "zip_code": "04101", "country": "US", "state": "ME", "display_address": ["43 Middle St", "Portland, ME 04101"]}, "phone": "+12077748080", "display_phone": "(207) 774-8080", "distance": 1878.4576046253158}, {"id": "WUXInQHQ60UQpk25_AiCWQ", "alias": "maine-maple-creemee-co-portland", "name": "Maine Maple Creemee Co", "image_url": "https://s3-media3.fl.yelpcdn.com/bphoto/JZXZM_0vbxVVxMR_GyhrnA/o.jpg", "is_closed": false, "url": "https://www.yelp.com/biz/maine-maple-creemee-co-portland?adjust_creative=c32R4bzAw8FryOFaJdPMNQ&utm_campaign=yelp_api_v3&utm_medium=api_v3_business_search&utm_source=c32R4bzAw8FryOFaJdPMNQ", "review_count": 7, "categories": [{"alias": "icecream", "title": "Ice Cream & Frozen Yogurt"}, {"alias": "foodtrucks", "title": "Food Trucks"}, {"alias": "desserts", "title": "Desserts"}], "rating": 5.0, "coordinates": {"latitude": 43.6601943969727, "longitude": -70.2593231201172}, "transactions": [], "location": {"address1": "", "address2": "", "address3": null, "city": "Portland", "zip_code": "04101", "country": "US", "state": "ME", "display_address": ["Portland, ME 04101"]}, "phone": "", "display_phone": "", "distance": 1280.4285481535019}, {"id": "SZD6_kp0iLsdzL2Dc-Gffw", "alias": "the-proper-cup-portland", "name": "The Proper Cup", "image_url": "https://s3-media2.fl.yelpcdn.com/bphoto/8X_CCSNwcNmNxM_UK1XRkw/o.jpg", "is_closed": false, "url": "https://www.yelp.com/biz/the-proper-cup-portland?adjust_creative=c32R4bzAw8FryOFaJdPMNQ&utm_campaign=yelp_api_v3&utm_medium=api_v3_business_search&utm_source=c32R4bzAw8FryOFaJdPMNQ", "review_count": 49, "categories": [{"alias": "coffee", "title": "Coffee & Tea"}], "rating": 4.5, "coordinates": {"latitude": 43.6672140803723, "longitude": -70.27900503407962}, "transactions": ["delivery"], "price": "$$", "location": {"address1": "500 Forest Ave", "address2": "", "address3": null, "city": "Portland", "zip_code": "04101", "country": "US", "state": "ME", "display_address": ["500 Forest Ave", "Portland, ME 04101"]}, "phone": "+12074054089", "display_phone": "(207) 405-4089", "distance": 568.2930339232256}, {"id": "0_O7fHuJFMPDJhThyx2aSA", "alias": "gorgeous-gelato-portland-portland-2", "name": "Gorgeous Gelato - Portland", "image_url": "https://s3-media3.fl.yelpcdn.com/bphoto/2p3H1Z_dwZwm1gHkONYeUQ/o.jpg", "is_closed": false, "url": "https://www.yelp.com/biz/gorgeous-gelato-portland-portland-2?adjust_creative=c32R4bzAw8FryOFaJdPMNQ&utm_campaign=yelp_api_v3&utm_medium=api_v3_business_search&utm_source=c32R4bzAw8FryOFaJdPMNQ", "review_count": 577, "categories": [{"alias": "icecream", "title": "Ice Cream & Frozen Yogurt"}, {"alias": "coffee", "title": "Coffee & Tea"}, {"alias": "gelato", "title": "Gelato"}], "rating": 4.5, "coordinates": {"latitude": 43.65576, "longitude": -70.25441}, "transactions": ["pickup", "delivery"], "price": "$$", "location": {"address1": "434 Fore St", "address2": "", "address3": "", "city": "Portland", "zip_code": "04101", "country": "US", "state": "ME", "display_address": ["434 Fore St", "Portland, ME 04101"]}, "phone": "+12076994309", "display_phone": "(207) 699-4309", "distance": 1859.3016184445712}, {"id": "sNsIgUAVCNF5uI9x-3--lQ", "alias": "the-cookie-jar-cape-elizabeth", "name": "The Cookie Jar", "image_url": "https://s3-media1.fl.yelpcdn.com/bphoto/f-TFu1p_BVS70nuYx2VK9g/o.jpg", "is_closed": false, "url": "https://www.yelp.com/biz/the-cookie-jar-cape-elizabeth?adjust_creative=c32R4bzAw8FryOFaJdPMNQ&utm_campaign=yelp_api_v3&utm_medium=api_v3_business_search&utm_source=c32R4bzAw8FryOFaJdPMNQ", "review_count": 124, "categories": [{"alias": "bakeries", "title": "Bakeries"}, {"alias": "donuts", "title": "Donuts"}, {"alias": "desserts", "title": "Desserts"}], "rating": 4.5, "coordinates": {"latitude": 43.63362, "longitude": -70.22647}, "transactions": [], "price": "$", "location": {"address1": "554 Shore Rd", "address2": "", "address3": "", "city": "Cape Elizabeth", "zip_code": "04107", "country": "US", "state": "ME", "display_address": ["554 Shore Rd", "Cape Elizabeth, ME 04107"]}, "phone": "+12077990671", "display_phone": "(207) 799-0671", "distance": 5187.203385935851}, {"id": "hNhY_Iu_ZeNFVEh0PA30yg", "alias": "scratch-baking-company-south-portland-2", "name": "Scratch Baking Company", "image_url": "https://s3-media2.fl.yelpcdn.com/bphoto/0r3I_fHvr-QfIFRyqwGGIQ/o.jpg", "is_closed": false, "url": "https://www.yelp.com/biz/scratch-baking-company-south-portland-2?adjust_creative=c32R4bzAw8FryOFaJdPMNQ&utm_campaign=yelp_api_v3&utm_medium=api_v3_business_search&utm_source=c32R4bzAw8FryOFaJdPMNQ", "review_count": 344, "categories": [{"alias": "bakeries", "title": "Bakeries"}, {"alias": "bagels", "title": "Bagels"}, {"alias": "coffee", "title": "Coffee & Tea"}], "rating": 4.5, "coordinates": {"latitude": 43.63925, "longitude": -70.23063}, "transactions": [], "price": "$$", "location": {"address1": "416 Preble St", "address2": "", "address3": "", "city": "South Portland", "zip_code": "04106", "country": "US", "state": "ME", "display_address": ["416 Preble St", "South Portland, ME 04106"]}, "phone": "+12077990668", "display_phone": "(207) 799-0668", "distance": 4498.862505371702}, {"id": "noAaKjKNvaQNysj8QnnWlg", "alias": "tandem-coffee-bakery-portland", "name": "Tandem Coffee + Bakery", "image_url": "https://s3-media1.fl.yelpcdn.com/bphoto/ShLPb4d7FVPyTUgQ5WcE2Q/o.jpg", "is_closed": false, "url": "https://www.yelp.com/biz/tandem-coffee-bakery-portland?adjust_creative=c32R4bzAw8FryOFaJdPMNQ&utm_campaign=yelp_api_v3&utm_medium=api_v3_business_search&utm_source=c32R4bzAw8FryOFaJdPMNQ", "review_count": 474, "categories": [{"alias": "coffee", "title": "Coffee & Tea"}, {"alias": "bakeries", "title": "Bakeries"}], "rating": 4.5, "coordinates": {"latitude": 43.65307, "longitude": -70.27058}, "transactions": ["delivery"], "price": "$$", "location": {"address1": "742 Congress St", "address2": "", "address3": "", "city": "Portland", "zip_code": "04102", "country": "US", "state": "ME", "display_address": ["742 Congress St", "Portland, ME 04102"]}, "phone": "+12077604440", "display_phone": "(207) 760-4440", "distance": 1508.2343934082467}, {"id": "M5aQHwnnmfmwrtYNrvjGuQ", "alias": "bard-coffee-portland", "name": "Bard Coffee", "image_url": "https://s3-media1.fl.yelpcdn.com/bphoto/2TBNIlg7dATdFwLIN44iBA/o.jpg", "is_closed": false, "url": "https://www.yelp.com/biz/bard-coffee-portland?adjust_creative=c32R4bzAw8FryOFaJdPMNQ&utm_campaign=yelp_api_v3&utm_medium=api_v3_business_search&utm_source=c32R4bzAw8FryOFaJdPMNQ", "review_count": 437, "categories": [{"alias": "coffee", "title": "Coffee & Tea"}], "rating": 4.5, "coordinates": {"latitude": 43.657686, "longitude": -70.255239}, "transactions": ["delivery"], "price": "$$", "location": {"address1": "185 Middle St", "address2": "", "address3": "", "city": "Portland", "zip_code": "04101", "country": "US", "state": "ME", "display_address": ["185 Middle St", "Portland, ME 04101"]}, "phone": "+12078994788", "display_phone": "(207) 899-4788", "distance": 1673.8317338607533}, {"id": "IqpovQqlOONLh8wOoJq5iw", "alias": "duckfat-frites-shack-portland", "name": "Duckfat Frites Shack", "image_url": "https://s3-media3.fl.yelpcdn.com/bphoto/EbHlND3DoUj0aHMexu6lRA/o.jpg", "is_closed": false, "url": "https://www.yelp.com/biz/duckfat-frites-shack-portland?adjust_creative=c32R4bzAw8FryOFaJdPMNQ&utm_campaign=yelp_api_v3&utm_medium=api_v3_business_search&utm_source=c32R4bzAw8FryOFaJdPMNQ", "review_count": 80, "categories": [{"alias": "tradamerican", "title": "American (Traditional)"}], "rating": 4.5, "coordinates": {"latitude": 43.66482, "longitude": -70.25157}, "transactions": ["delivery"], "location": {"address1": "43 Washington Ave", "address2": "", "address3": null, "city": "Portland", "zip_code": "04101", "country": "US", "state": "ME", "display_address": ["43 Washington Ave", "Portland, ME 04101"]}, "phone": "+12072002505", "display_phone": "(207) 200-2505", "distance": 1654.466791995367}, {"id": "pfmym51iVat9G1jR6W3EDA", "alias": "coffee-me-up-portland-2", "name": "Coffee ME Up", "image_url": "https://s3-media4.fl.yelpcdn.com/bphoto/T8GCQgnDcDASM9sXrckUhw/o.jpg", "is_closed": false, "url": "https://www.yelp.com/biz/coffee-me-up-portland-2?adjust_creative=c32R4bzAw8FryOFaJdPMNQ&utm_campaign=yelp_api_v3&utm_medium=api_v3_business_search&utm_source=c32R4bzAw8FryOFaJdPMNQ", "review_count": 237, "categories": [{"alias": "coffee", "title": "Coffee & Tea"}, {"alias": "breakfast_brunch", "title": "Breakfast & Brunch"}], "rating": 5.0, "coordinates": {"latitude": 43.6611662810493, "longitude": -70.2564112992787}, "transactions": ["pickup", "delivery"], "price": "$", "location": {"address1": "221 Cumberland Ave", "address2": "", "address3": null, "city": "Portland", "zip_code": "04101", "country": "US", "state": "ME", "display_address": ["221 Cumberland Ave", "Portland, ME 04101"]}, "phone": "+12075361279", "display_phone": "(207) 536-1279", "distance": 1391.9180477772838}, {"id": "AEVPmm_ZOTUvFALo1X68pA", "alias": "dutchs-portland", "name": "Dutch's", "image_url": "https://s3-media2.fl.yelpcdn.com/bphoto/P1j_alzwbWjCmuV1bAy9TA/o.jpg", "is_closed": false, "url": "https://www.yelp.com/biz/dutchs-portland?adjust_creative=c32R4bzAw8FryOFaJdPMNQ&utm_campaign=yelp_api_v3&utm_medium=api_v3_business_search&utm_source=c32R4bzAw8FryOFaJdPMNQ", "review_count": 319, "categories": [{"alias": "breakfast_brunch", "title": "Breakfast & Brunch"}, {"alias": "sandwiches", "title": "Sandwiches"}], "rating": 4.5, "coordinates": {"latitude": 43.6578360021297, "longitude": -70.260703}, "transactions": ["pickup", "delivery"], "price": "$", "location": {"address1": "28 Preble St", "address2": "", "address3": "", "city": "Portland", "zip_code": "04101", "country": "US", "state": "ME", "display_address": ["28 Preble St", "Portland, ME 04101"]}, "phone": "+12077612900", "display_phone": "(207) 761-2900", "distance": 1333.299695423713}, {"id": "YswZVuJHUvfoF52HcTqs6w", "alias": "the-bakers-bench-westbrook", "name": "The Baker's Bench", "image_url": "https://s3-media1.fl.yelpcdn.com/bphoto/qpCi4lsdq86Iw1V2fMe3yQ/o.jpg", "is_closed": false, "url": "https://www.yelp.com/biz/the-bakers-bench-westbrook?adjust_creative=c32R4bzAw8FryOFaJdPMNQ&utm_campaign=yelp_api_v3&utm_medium=api_v3_business_search&utm_source=c32R4bzAw8FryOFaJdPMNQ", "review_count": 101, "categories": [{"alias": "bakeries", "title": "Bakeries"}, {"alias": "sandwiches", "title": "Sandwiches"}, {"alias": "desserts", "title": "Desserts"}], "rating": 4.5, "coordinates": {"latitude": 43.675532, "longitude": -70.366994}, "transactions": ["delivery"], "price": "$", "location": {"address1": "33 Brackett St", "address2": "", "address3": "", "city": "Westbrook", "zip_code": "04092", "country": "US", "state": "ME", "display_address": ["33 Brackett St", "Westbrook, ME 04092"]}, "phone": "+12078567333", "display_phone": "(207) 856-7333", "distance": 7705.2542180996625}, {"id": "uuFQVjP_Ehy8yrn617Vzhg", "alias": "union-bagel-co-portland", "name": "Union Bagel Co.", "image_url": "https://s3-media2.fl.yelpcdn.com/bphoto/BY3FqfrdBhKolov97fHUaA/o.jpg", "is_closed": false, "url": "https://www.yelp.com/biz/union-bagel-co-portland?adjust_creative=c32R4bzAw8FryOFaJdPMNQ&utm_campaign=yelp_api_v3&utm_medium=api_v3_business_search&utm_source=c32R4bzAw8FryOFaJdPMNQ", "review_count": 113, "categories": [{"alias": "bagels", "title": "Bagels"}], "rating": 4.0, "coordinates": {"latitude": 43.6630169, "longitude": -70.2530982}, "transactions": [], "price": "$", "location": {"address1": "147 Cumberland Ave", "address2": "", "address3": "", "city": "Portland", "zip_code": "04101", "country": "US", "state": "ME", "display_address": ["147 Cumberland Ave", "Portland, ME 04101"]}, "phone": "+12077474400", "display_phone": "(207) 747-4400", "distance": 1571.324569768622}], "total": 110, "region": {"center": {"longitude": -70.27198791503906, "latitude": 43.66661831770135}}}